{
"type": "FeatureCollection",
"name": "citiesdot",
"crs": { "type": "name", "properties": { "name": "urn:ogc:def:crs:OGC:1.3:CRS84" } },
"features": [
{ "type": "Feature", "properties": { "Program": "Foundation Initiated", "loc": "Anchorage, AK", "number": 2, "lat": 61.2180556, "lon": -149.9002778, "geoAddress": "anchorage, ak, usa" }, "geometry": { "type": "Point", "coordinates": [ -149.90028, 61.21806 ] } },
{ "type": "Feature", "properties": { "Program": "Individual Artist Award", "loc": "Anchorage, AK", "number": 14, "lat": 61.2180556, "lon": -149.9002778, "geoAddress": "anchorage, ak, usa" }, "geometry": { "type": "Point", "coordinates": [ -149.90028, 61.21806 ] } },
{ "type": "Feature", "properties": { "Program": "Individual Artist Award", "loc": "Chevak, AK", "number": 1, "lat": 61.5277778, "lon": -165.5863889, "geoAddress": "chevak, ak, usa" }, "geometry": { "type": "Point", "coordinates": [ -165.58639, 61.52778 ] } },
{ "type": "Feature", "properties": { "Program": "Individual Artist Award", "loc": "Douglas, AK", "number": 1, "lat": 58.2777689, "lon": -134.4080527, "geoAddress": "douglas, juneau, ak, usa" }, "geometry": { "type": "Point", "coordinates": [ -134.40805, 58.27777 ] } },
{ "type": "Feature", "properties": { "Program": "Individual Artist Award", "loc": "Fairbanks, AK", "number": 3, "lat": 64.8377778, "lon": -147.7163888, "geoAddress": "fairbanks, ak, usa" }, "geometry": { "type": "Point", "coordinates": [ -147.71639, 64.83778 ] } },
{ "type": "Feature", "properties": { "Program": "Individual Artist Award", "loc": "Glennallen, AK", "number": 1, "lat": 62.1097214, "lon": -145.5573019, "geoAddress": "glennallen, ak 99588, usa" }, "geometry": { "type": "Point", "coordinates": [ -145.5573, 62.10972 ] } },
{ "type": "Feature", "properties": { "Program": "Individual Artist Award", "loc": "Haines, AK", "number": 2, "lat": 59.2358333, "lon": -135.445, "geoAddress": "haines, ak 99827, usa" }, "geometry": { "type": "Point", "coordinates": [ -135.445, 59.23583 ] } },
{ "type": "Feature", "properties": { "Program": "Individual Artist Award", "loc": "Homer, AK", "number": 4, "lat": 59.6425, "lon": -151.5483333, "geoAddress": "homer, ak, usa" }, "geometry": { "type": "Point", "coordinates": [ -151.54833, 59.6425 ] } },
{ "type": "Feature", "properties": { "Program": "Individual Artist Award", "loc": "Juneau, AK", "number": 1, "lat": 58.3019444, "lon": -134.4197221, "geoAddress": "juneau, ak, usa" }, "geometry": { "type": "Point", "coordinates": [ -134.41972, 58.30194 ] } },
{ "type": "Feature", "properties": { "Program": "Individual Artist Award", "loc": "Ketchikan, AK", "number": 1, "lat": 55.3422222, "lon": -131.6461112, "geoAddress": "ketchikan, ak 99901, usa" }, "geometry": { "type": "Point", "coordinates": [ -131.64611, 55.34222 ] } },
{ "type": "Feature", "properties": { "Program": "Individual Artist Award", "loc": "Klawock, AK", "number": 1, "lat": 55.5522222, "lon": -133.0958333, "geoAddress": "klawock, ak 99925, usa" }, "geometry": { "type": "Point", "coordinates": [ -133.09583, 55.55222 ] } },
{ "type": "Feature", "properties": { "Program": "Individual Artist Award", "loc": "Kodiak, AK", "number": 1, "lat": 57.79, "lon": -152.4072221, "geoAddress": "kodiak, ak, usa" }, "geometry": { "type": "Point", "coordinates": [ -152.40722, 57.79 ] } },
{ "type": "Feature", "properties": { "Program": "Individual Artist Award", "loc": "Metlakatla, AK", "number": 1, "lat": 55.1291667, "lon": -131.5722222, "geoAddress": "metlakatla, ak 99926, usa" }, "geometry": { "type": "Point", "coordinates": [ -131.57222, 55.12917 ] } },
{ "type": "Feature", "properties": { "Program": "Individual Artist Award", "loc": "Seward, AK", "number": 1, "lat": 60.1041667, "lon": -149.4422222, "geoAddress": "seward, ak 99664, usa" }, "geometry": { "type": "Point", "coordinates": [ -149.44222, 60.10417 ] } },
{ "type": "Feature", "properties": { "Program": "Individual Artist Award", "loc": "Shishmaref, AK", "number": 1, "lat": 66.2566667, "lon": -166.0719444, "geoAddress": "shishmaref, ak, usa" }, "geometry": { "type": "Point", "coordinates": [ -166.07194, 66.25667 ] } },
{ "type": "Feature", "properties": { "Program": "Individual Artist Award", "loc": "Sitka, AK", "number": 1, "lat": 57.0530556, "lon": -135.33, "geoAddress": "sitka, ak, usa" }, "geometry": { "type": "Point", "coordinates": [ -135.33, 57.05306 ] } },
{ "type": "Feature", "properties": { "Program": "Individual Artist Award", "loc": "Unalaska, AK", "number": 1, "lat": 53.8844382, "lon": -166.5332434, "geoAddress": "unalaska, ak, usa" }, "geometry": { "type": "Point", "coordinates": [ -166.53324, 53.88444 ] } },
{ "type": "Feature", "properties": { "Program": "Sabbatical", "loc": "Anchorage, AK", "number": 3, "lat": 61.2180556, "lon": -149.9002778, "geoAddress": "anchorage, ak, usa" }, "geometry": { "type": "Point", "coordinates": [ -149.90028, 61.21806 ] } },
{ "type": "Feature", "properties": { "Program": "Sabbatical", "loc": "Homer, AK", "number": 1, "lat": 59.6425, "lon": -151.5483333, "geoAddress": "homer, ak, usa" }, "geometry": { "type": "Point", "coordinates": [ -151.54833, 59.6425 ] } },
{ "type": "Feature", "properties": { "Program": "Sabbatical", "loc": "Petersburg, AK", "number": 1, "lat": 56.8125, "lon": -132.9555556, "geoAddress": "petersburg, ak 99833, usa" }, "geometry": { "type": "Point", "coordinates": [ -132.95556, 56.8125 ] } },
{ "type": "Feature", "properties": { "Program": "Sabbatical", "loc": "Port Heiden, AK", "number": 1, "lat": 56.9491667, "lon": -158.6269444, "geoAddress": "port heiden, ak, usa" }, "geometry": { "type": "Point", "coordinates": [ -158.62694, 56.94917 ] } },
{ "type": "Feature", "properties": { "Program": "Tier 1", "loc": "Anchor Point, AK", "number": 1, "lat": 59.7766667, "lon": -151.8313889, "geoAddress": "anchor point, ak, usa" }, "geometry": { "type": "Point", "coordinates": [ -151.83139, 59.77667 ] } },
{ "type": "Feature", "properties": { "Program": "Tier 1", "loc": "Anchorage, AK", "number": 53, "lat": 61.2180556, "lon": -149.9002778, "geoAddress": "anchorage, ak, usa" }, "geometry": { "type": "Point", "coordinates": [ -149.90028, 61.21806 ] } },
{ "type": "Feature", "properties": { "Program": "Tier 1", "loc": "Barrow, AK", "number": 1, "lat": 71.2905556, "lon": -156.788611, "geoAddress": "utqiagvik, ak 99723, usa" }, "geometry": { "type": "Point", "coordinates": [ -156.78861, 71.29056 ] } },
{ "type": "Feature", "properties": { "Program": "Tier 1", "loc": "Bethel, AK", "number": 6, "lat": 60.7922222, "lon": -161.7558334, "geoAddress": "bethel, ak, usa" }, "geometry": { "type": "Point", "coordinates": [ -161.75583, 60.79222 ] } },
{ "type": "Feature", "properties": { "Program": "Tier 1", "loc": "Big Delta, AK", "number": 1, "lat": 64.1525, "lon": -145.8422222, "geoAddress": "big delta, ak 99737, usa" }, "geometry": { "type": "Point", "coordinates": [ -145.84222, 64.1525 ] } },
{ "type": "Feature", "properties": { "Program": "Tier 1", "loc": "Big Lake, AK", "number": 1, "lat": 61.5118164, "lon": -149.9663271, "geoAddress": "big lake, ak, usa" }, "geometry": { "type": "Point", "coordinates": [ -149.96633, 61.51182 ] } },
{ "type": "Feature", "properties": { "Program": "Tier 1", "loc": "Chenega Bay, AK", "number": 1, "lat": 60.1003059, "lon": -147.9448419, "geoAddress": "chenega, ak 99574, usa" }, "geometry": { "type": "Point", "coordinates": [ -147.94484, 60.10031 ] } },
{ "type": "Feature", "properties": { "Program": "Tier 1", "loc": "Chistochina, AK", "number": 1, "lat": 62.565, "lon": -144.6647222, "geoAddress": "chistochina, ak, usa" }, "geometry": { "type": "Point", "coordinates": [ -144.66472, 62.565 ] } },
{ "type": "Feature", "properties": { "Program": "Tier 1", "loc": "Chugiak, AK", "number": 1, "lat": 61.3888889, "lon": -149.4819445, "geoAddress": "chugiak, anchorage, ak 99567, usa" }, "geometry": { "type": "Point", "coordinates": [ -149.48194, 61.38889 ] } },
{ "type": "Feature", "properties": { "Program": "Tier 1", "loc": "Clark's Point, AK", "number": 1, "lat": 58.8369548, "lon": -158.5267195, "geoAddress": "clark's point, ak, usa" }, "geometry": { "type": "Point", "coordinates": [ -158.52672, 58.83695 ] } },
{ "type": "Feature", "properties": { "Program": "Tier 1", "loc": "Cooper Landing, AK", "number": 1, "lat": 60.49, "lon": -149.8341667, "geoAddress": "cooper landing, ak 99572, usa" }, "geometry": { "type": "Point", "coordinates": [ -149.83417, 60.49 ] } },
{ "type": "Feature", "properties": { "Program": "Tier 1", "loc": "Cordova, AK", "number": 1, "lat": 60.5424087, "lon": -145.7525414, "geoAddress": "cordova, ak 99574, usa" }, "geometry": { "type": "Point", "coordinates": [ -145.75254, 60.54241 ] } },
{ "type": "Feature", "properties": { "Program": "Tier 1", "loc": "Dillingham, AK", "number": 1, "lat": 59.0397222, "lon": -158.4575, "geoAddress": "dillingham, ak 99576, usa" }, "geometry": { "type": "Point", "coordinates": [ -158.4575, 59.03972 ] } },
{ "type": "Feature", "properties": { "Program": "Tier 1", "loc": "Douglas, AK", "number": 1, "lat": 58.2777689, "lon": -134.4080527, "geoAddress": "douglas, juneau, ak, usa" }, "geometry": { "type": "Point", "coordinates": [ -134.40805, 58.27777 ] } },
{ "type": "Feature", "properties": { "Program": "Tier 1", "loc": "Eagle River, AK", "number": 2, "lat": 61.3293186, "lon": -149.56805, "geoAddress": "eagle river, anchorage, ak 99577, usa" }, "geometry": { "type": "Point", "coordinates": [ -149.56805, 61.32932 ] } },
{ "type": "Feature", "properties": { "Program": "Tier 1", "loc": "Eagle, AK", "number": 2, "lat": 64.7880556, "lon": -141.19999989999999, "geoAddress": "eagle, ak 99738, usa" }, "geometry": { "type": "Point", "coordinates": [ -141.2, 64.78806 ] } },
{ "type": "Feature", "properties": { "Program": "Tier 1", "loc": "Eklutna, AK", "number": 1, "lat": 61.4580556, "lon": -149.3622222, "geoAddress": "eklutna, anchorage, ak 99567, usa" }, "geometry": { "type": "Point", "coordinates": [ -149.36222, 61.45806 ] } },
{ "type": "Feature", "properties": { "Program": "Tier 1", "loc": "Ester, AK", "number": 1, "lat": 64.8557761, "lon": -147.9783109, "geoAddress": "ester, ak 99709, usa" }, "geometry": { "type": "Point", "coordinates": [ -147.97831, 64.85578 ] } },
{ "type": "Feature", "properties": { "Program": "Tier 1", "loc": "Fairbanks, AK", "number": 9, "lat": 64.8377778, "lon": -147.7163888, "geoAddress": "fairbanks, ak, usa" }, "geometry": { "type": "Point", "coordinates": [ -147.71639, 64.83778 ] } },
{ "type": "Feature", "properties": { "Program": "Tier 1", "loc": "Galena, AK", "number": 1, "lat": 64.7333333, "lon": -156.9275, "geoAddress": "galena, ak 99741, usa" }, "geometry": { "type": "Point", "coordinates": [ -156.9275, 64.73333 ] } },
{ "type": "Feature", "properties": { "Program": "Tier 1", "loc": "Haines, AK", "number": 1, "lat": 59.2358333, "lon": -135.445, "geoAddress": "haines, ak 99827, usa" }, "geometry": { "type": "Point", "coordinates": [ -135.445, 59.23583 ] } },
{ "type": "Feature", "properties": { "Program": "Tier 1", "loc": "Homer, AK", "number": 6, "lat": 59.6425, "lon": -151.5483333, "geoAddress": "homer, ak, usa" }, "geometry": { "type": "Point", "coordinates": [ -151.54833, 59.6425 ] } },
{ "type": "Feature", "properties": { "Program": "Tier 1", "loc": "Hydaburg, AK", "number": 1, "lat": 55.2080556, "lon": -132.8266667, "geoAddress": "hydaburg, ak, usa" }, "geometry": { "type": "Point", "coordinates": [ -132.82667, 55.20806 ] } },
{ "type": "Feature", "properties": { "Program": "Tier 1", "loc": "Igiugig, AK", "number": 1, "lat": 59.3277778, "lon": -155.8947222, "geoAddress": "igiugig, ak, usa" }, "geometry": { "type": "Point", "coordinates": [ -155.89472, 59.32778 ] } },
{ "type": "Feature", "properties": { "Program": "Tier 1", "loc": "Iliamna, AK", "number": 1, "lat": 59.7547222, "lon": -154.9061111, "geoAddress": "iliamna, ak 99606, usa" }, "geometry": { "type": "Point", "coordinates": [ -154.90611, 59.75472 ] } },
{ "type": "Feature", "properties": { "Program": "Tier 1", "loc": "Juneau, AK", "number": 10, "lat": 58.3019444, "lon": -134.4197221, "geoAddress": "juneau, ak, usa" }, "geometry": { "type": "Point", "coordinates": [ -134.41972, 58.30194 ] } },
{ "type": "Feature", "properties": { "Program": "Tier 1", "loc": "Kenai, AK", "number": 3, "lat": 60.5544444, "lon": -151.2583333, "geoAddress": "kenai, ak, usa" }, "geometry": { "type": "Point", "coordinates": [ -151.25833, 60.55444 ] } },
{ "type": "Feature", "properties": { "Program": "Tier 1", "loc": "Ketchikan, AK", "number": 1, "lat": 55.3422222, "lon": -131.6461112, "geoAddress": "ketchikan, ak 99901, usa" }, "geometry": { "type": "Point", "coordinates": [ -131.64611, 55.34222 ] } },
{ "type": "Feature", "properties": { "Program": "Tier 1", "loc": "King Cove, AK", "number": 1, "lat": 55.0616667, "lon": -162.3102777, "geoAddress": "king cove, ak, usa" }, "geometry": { "type": "Point", "coordinates": [ -162.31028, 55.06167 ] } },
{ "type": "Feature", "properties": { "Program": "Tier 1", "loc": "Klukwan, AK", "number": 1, "lat": 59.4038889, "lon": -135.8844444, "geoAddress": "klukwan, ak 99827, usa" }, "geometry": { "type": "Point", "coordinates": [ -135.88444, 59.40389 ] } },
{ "type": "Feature", "properties": { "Program": "Tier 1", "loc": "Kodiak, AK", "number": 3, "lat": 57.79, "lon": -152.4072221, "geoAddress": "kodiak, ak, usa" }, "geometry": { "type": "Point", "coordinates": [ -152.40722, 57.79 ] } },
{ "type": "Feature", "properties": { "Program": "Tier 1", "loc": "Kotzebue, AK", "number": 2, "lat": 66.8983333, "lon": -162.5966666, "geoAddress": "kotzebue, ak 99752, usa" }, "geometry": { "type": "Point", "coordinates": [ -162.59667, 66.89833 ] } },
{ "type": "Feature", "properties": { "Program": "Tier 1", "loc": "Larsen Bay, AK", "number": 1, "lat": 57.54, "lon": -153.9786111, "geoAddress": "larsen bay, ak, usa" }, "geometry": { "type": "Point", "coordinates": [ -153.97861, 57.54 ] } },
{ "type": "Feature", "properties": { "Program": "Tier 1", "loc": "Matanuska-Susitna Borough, AK", "number": 2, "lat": 62.2599347, "lon": -150.1729153, "geoAddress": "matanuska-susitna, ak, usa" }, "geometry": { "type": "Point", "coordinates": [ -150.17292, 62.25993 ] } },
{ "type": "Feature", "properties": { "Program": "Tier 1", "loc": "McCarthy, AK", "number": 1, "lat": 61.4333333, "lon": -142.9216667, "geoAddress": "mccarthy, ak 99566, usa" }, "geometry": { "type": "Point", "coordinates": [ -142.92167, 61.43333 ] } },
{ "type": "Feature", "properties": { "Program": "Tier 1", "loc": "Nenana, AK", "number": 1, "lat": 64.5638889, "lon": -149.0930556, "geoAddress": "nenana, ak 99760, usa" }, "geometry": { "type": "Point", "coordinates": [ -149.09306, 64.56389 ] } },
{ "type": "Feature", "properties": { "Program": "Tier 1", "loc": "Nome, AK", "number": 2, "lat": 64.5011111, "lon": -165.4063889, "geoAddress": "nome, ak, usa" }, "geometry": { "type": "Point", "coordinates": [ -165.40639, 64.50111 ] } },
{ "type": "Feature", "properties": { "Program": "Tier 1", "loc": "North Slope Borough, AK", "number": 1, "lat": 69.0578758, "lon": -152.8628274, "geoAddress": "north slope, ak, usa" }, "geometry": { "type": "Point", "coordinates": [ -152.86283, 69.05788 ] } },
{ "type": "Feature", "properties": { "Program": "Tier 1", "loc": "Northwest Arctic borough, AK", "number": 1, "lat": 67.2872981, "lon": -160.0342624, "geoAddress": "northwest arctic, ak, usa" }, "geometry": { "type": "Point", "coordinates": [ -160.03426, 67.2873 ] } },
{ "type": "Feature", "properties": { "Program": "Tier 1", "loc": "Palmer, AK", "number": 6, "lat": 61.5997222, "lon": -149.1127777, "geoAddress": "palmer, ak 99645, usa" }, "geometry": { "type": "Point", "coordinates": [ -149.11278, 61.59972 ] } },
{ "type": "Feature", "properties": { "Program": "Tier 1", "loc": "Petersburg, AK", "number": 1, "lat": 56.8125, "lon": -132.9555556, "geoAddress": "petersburg, ak 99833, usa" }, "geometry": { "type": "Point", "coordinates": [ -132.95556, 56.8125 ] } },
{ "type": "Feature", "properties": { "Program": "Tier 1", "loc": "Point MacKenzie, AK", "number": 1, "lat": 61.3597222, "lon": -149.9783332, "geoAddress": "point mackenzie, ak 99654, usa" }, "geometry": { "type": "Point", "coordinates": [ -149.97833, 61.35972 ] } },
{ "type": "Feature", "properties": { "Program": "Tier 1", "loc": "Portage, AK", "number": 1, "lat": 60.831532, "lon": -148.9855041, "geoAddress": "portage, ak 99587, usa" }, "geometry": { "type": "Point", "coordinates": [ -148.9855, 60.83153 ] } },
{ "type": "Feature", "properties": { "Program": "Tier 1", "loc": "Rampart, AK", "number": 1, "lat": 65.505, "lon": -150.1699999, "geoAddress": "rampart, ak, usa" }, "geometry": { "type": "Point", "coordinates": [ -150.17, 65.505 ] } },
{ "type": "Feature", "properties": { "Program": "Tier 1", "loc": "Ruby, AK", "number": 1, "lat": 64.7394444, "lon": -155.4869445, "geoAddress": "ruby, ak 99768, usa" }, "geometry": { "type": "Point", "coordinates": [ -155.48694, 64.73944 ] } },
{ "type": "Feature", "properties": { "Program": "Tier 1", "loc": "Saint Paul, AK", "number": 1, "lat": 57.1224981, "lon": -170.2799461, "geoAddress": "st paul, ak, usa" }, "geometry": { "type": "Point", "coordinates": [ -170.27995, 57.1225 ] } },
{ "type": "Feature", "properties": { "Program": "Tier 1", "loc": "Saxman, AK", "number": 1, "lat": 55.3183333, "lon": -131.5958333, "geoAddress": "saxman, ak 99901, usa" }, "geometry": { "type": "Point", "coordinates": [ -131.59583, 55.31833 ] } },
{ "type": "Feature", "properties": { "Program": "Tier 1", "loc": "Seward, AK", "number": 2, "lat": 60.1041667, "lon": -149.4422222, "geoAddress": "seward, ak 99664, usa" }, "geometry": { "type": "Point", "coordinates": [ -149.44222, 60.10417 ] } },
{ "type": "Feature", "properties": { "Program": "Tier 1", "loc": "Silver Salmon, AK", "number": 1, "lat": 61.8411077, "lon": -150.0930186, "geoAddress": "sword tail cir, willow, ak 99688, usa" }, "geometry": { "type": "Point", "coordinates": [ -150.09302, 61.84111 ] } },
{ "type": "Feature", "properties": { "Program": "Tier 1", "loc": "Sitka, AK", "number": 5, "lat": 57.0530556, "lon": -135.33, "geoAddress": "sitka, ak, usa" }, "geometry": { "type": "Point", "coordinates": [ -135.33, 57.05306 ] } },
{ "type": "Feature", "properties": { "Program": "Tier 1", "loc": "Soldotna, AK", "number": 3, "lat": 60.4877778, "lon": -151.0583332, "geoAddress": "soldotna, ak 99669, usa" }, "geometry": { "type": "Point", "coordinates": [ -151.05833, 60.48778 ] } },
{ "type": "Feature", "properties": { "Program": "Tier 1", "loc": "Talkeetna, AK", "number": 2, "lat": 62.3209046, "lon": -150.1066221, "geoAddress": "talkeetna, ak 99676, usa" }, "geometry": { "type": "Point", "coordinates": [ -150.10662, 62.3209 ] } },
{ "type": "Feature", "properties": { "Program": "Tier 1", "loc": "Tanana, AK", "number": 1, "lat": 65.1719444, "lon": -152.0788889, "geoAddress": "tanana, ak, usa" }, "geometry": { "type": "Point", "coordinates": [ -152.07889, 65.17194 ] } },
{ "type": "Feature", "properties": { "Program": "Tier 1", "loc": "Tazlina, AK", "number": 1, "lat": 62.0462375, "lon": -145.4085587, "geoAddress": "tazlina, ak, usa" }, "geometry": { "type": "Point", "coordinates": [ -145.40856, 62.04624 ] } },
{ "type": "Feature", "properties": { "Program": "Tier 1", "loc": "Tetlin, AK", "number": 1, "lat": 63.1372222, "lon": -142.5161111, "geoAddress": "tetlin, ak 99780, usa" }, "geometry": { "type": "Point", "coordinates": [ -142.51611, 63.13722 ] } },
{ "type": "Feature", "properties": { "Program": "Tier 1", "loc": "Togiak, AK", "number": 1, "lat": 59.0619444, "lon": -160.3763889, "geoAddress": "togiak, ak, usa" }, "geometry": { "type": "Point", "coordinates": [ -160.37639, 59.06194 ] } },
{ "type": "Feature", "properties": { "Program": "Tier 1", "loc": "Utqiaġvik, AK", "number": 2, "lat": 71.2905556, "lon": -156.788611, "geoAddress": "utqiagvik, ak 99723, usa" }, "geometry": { "type": "Point", "coordinates": [ -156.78861, 71.29056 ] } },
{ "type": "Feature", "properties": { "Program": "Tier 1", "loc": "Wasilla, AK", "number": 3, "lat": 61.5813889, "lon": -149.4394444, "geoAddress": "wasilla, ak 99654, usa" }, "geometry": { "type": "Point", "coordinates": [ -149.43944, 61.58139 ] } },
{ "type": "Feature", "properties": { "Program": "Tier 1", "loc": "Yakutat, AK", "number": 1, "lat": 59.5469878, "lon": -139.7272808, "geoAddress": "yakutat, ak, usa" }, "geometry": { "type": "Point", "coordinates": [ -139.72728, 59.54699 ] } },
{ "type": "Feature", "properties": { "Program": "Tier 2", "loc": "Anchorage, AK", "number": 13, "lat": 61.2180556, "lon": -149.9002778, "geoAddress": "anchorage, ak, usa" }, "geometry": { "type": "Point", "coordinates": [ -149.90028, 61.21806 ] } },
{ "type": "Feature", "properties": { "Program": "Tier 2", "loc": "Bethel, AK", "number": 1, "lat": 60.7922222, "lon": -161.7558334, "geoAddress": "bethel, ak, usa" }, "geometry": { "type": "Point", "coordinates": [ -161.75583, 60.79222 ] } },
{ "type": "Feature", "properties": { "Program": "Tier 2", "loc": "Circle, AK", "number": 1, "lat": 65.8255556, "lon": -144.0605556, "geoAddress": "circle, ak, usa" }, "geometry": { "type": "Point", "coordinates": [ -144.06056, 65.82556 ] } },
{ "type": "Feature", "properties": { "Program": "Tier 2", "loc": "Denali Park, AK", "number": 1, "lat": 63.1148002, "lon": -151.1926057, "geoAddress": "denali national park and preserve, george parks hwy, denali national park and preserve, ak, usa" }, "geometry": { "type": "Point", "coordinates": [ -151.19261, 63.1148 ] } },
{ "type": "Feature", "properties": { "Program": "Tier 2", "loc": "Douglas, AK", "number": 1, "lat": 58.2777689, "lon": -134.4080527, "geoAddress": "douglas, juneau, ak, usa" }, "geometry": { "type": "Point", "coordinates": [ -134.40805, 58.27777 ] } },
{ "type": "Feature", "properties": { "Program": "Tier 2", "loc": "Eklutna, AK", "number": 1, "lat": 61.4580556, "lon": -149.3622222, "geoAddress": "eklutna, anchorage, ak 99567, usa" }, "geometry": { "type": "Point", "coordinates": [ -149.36222, 61.45806 ] } },
{ "type": "Feature", "properties": { "Program": "Tier 2", "loc": "Fairbanks, AK", "number": 2, "lat": 64.8377778, "lon": -147.7163888, "geoAddress": "fairbanks, ak, usa" }, "geometry": { "type": "Point", "coordinates": [ -147.71639, 64.83778 ] } },
{ "type": "Feature", "properties": { "Program": "Tier 2", "loc": "Gustavus, AK", "number": 1, "lat": 58.4133333, "lon": -135.7369443, "geoAddress": "gustavus, ak 99826, usa" }, "geometry": { "type": "Point", "coordinates": [ -135.73694, 58.41333 ] } },
{ "type": "Feature", "properties": { "Program": "Tier 2", "loc": "Homer, AK", "number": 1, "lat": 59.6425, "lon": -151.5483333, "geoAddress": "homer, ak, usa" }, "geometry": { "type": "Point", "coordinates": [ -151.54833, 59.6425 ] } },
{ "type": "Feature", "properties": { "Program": "Tier 2", "loc": "Juneau, AK", "number": 1, "lat": 58.3019444, "lon": -134.4197221, "geoAddress": "juneau, ak, usa" }, "geometry": { "type": "Point", "coordinates": [ -134.41972, 58.30194 ] } },
{ "type": "Feature", "properties": { "Program": "Tier 2", "loc": "Kenai, AK", "number": 1, "lat": 60.5544444, "lon": -151.2583333, "geoAddress": "kenai, ak, usa" }, "geometry": { "type": "Point", "coordinates": [ -151.25833, 60.55444 ] } },
{ "type": "Feature", "properties": { "Program": "Tier 2", "loc": "Knik-Fairview, AK", "number": 1, "lat": 61.5158655, "lon": -149.6120203, "geoAddress": "knik-fairview, ak 99654, usa" }, "geometry": { "type": "Point", "coordinates": [ -149.61202, 61.51587 ] } },
{ "type": "Feature", "properties": { "Program": "Tier 2", "loc": "Palmer, AK", "number": 1, "lat": 61.5997222, "lon": -149.1127777, "geoAddress": "palmer, ak 99645, usa" }, "geometry": { "type": "Point", "coordinates": [ -149.11278, 61.59972 ] } },
{ "type": "Feature", "properties": { "Program": "Tier 2", "loc": "Portage, AK", "number": 1, "lat": 60.831532, "lon": -148.9855041, "geoAddress": "portage, ak 99587, usa" }, "geometry": { "type": "Point", "coordinates": [ -148.9855, 60.83153 ] } },
{ "type": "Feature", "properties": { "Program": "Tier 2", "loc": "Sitka, AK", "number": 1, "lat": 57.0530556, "lon": -135.33, "geoAddress": "sitka, ak, usa" }, "geometry": { "type": "Point", "coordinates": [ -135.33, 57.05306 ] } },
{ "type": "Feature", "properties": { "Program": "Tier 2", "loc": "Sterling, AK", "number": 1, "lat": 60.5372222, "lon": -150.7647222, "geoAddress": "sterling, ak, usa" }, "geometry": { "type": "Point", "coordinates": [ -150.76472, 60.53722 ] } },
{ "type": "Feature", "properties": { "Program": "Tier 2", "loc": "Utqiaġvik, AK", "number": 1, "lat": 71.2905556, "lon": -156.788611, "geoAddress": "utqiagvik, ak 99723, usa" }, "geometry": { "type": "Point", "coordinates": [ -156.78861, 71.29056 ] } },
{ "type": "Feature", "properties": { "Program": "Tier 2", "loc": "Wasilla, AK", "number": 2, "lat": 61.5813889, "lon": -149.4394444, "geoAddress": "wasilla, ak 99654, usa" }, "geometry": { "type": "Point", "coordinates": [ -149.43944, 61.58139 ] } }
]
}
