{
"type": "FeatureCollection",
"name": "citiesDot_6_18",
"crs": { "type": "name", "properties": { "name": "urn:ogc:def:crs:EPSG::3338" } },
"features": [
{ "type": "Feature", "properties": { "Program": "Foundation Initiative", "loc": "Anchorage, AK", "number": 2, "lat": 61.2180556, "lon": -149.9002778, "geoAddress": "anchorage, ak, usa" }, "geometry": { "type": "Point", "coordinates": [ 219349.579219708219171, 1255301.539725447306409 ] } },
{ "type": "Feature", "properties": { "Program": "Individual Artist Award", "loc": "Anchorage, AK", "number": 14, "lat": 61.2180556, "lon": -149.9002778, "geoAddress": "anchorage, ak, usa" }, "geometry": { "type": "Point", "coordinates": [ 219349.579219708219171, 1255301.539725447306409 ] } },
{ "type": "Feature", "properties": { "Program": "Individual Artist Award", "loc": "Chevak, AK", "number": 1, "lat": 61.5277778, "lon": -165.5863889, "geoAddress": "chevak, ak, usa" }, "geometry": { "type": "Point", "coordinates": [ -611155.972278506262228, 1336614.935295475879684 ] } },
{ "type": "Feature", "properties": { "Program": "Individual Artist Award", "loc": "Douglas, AK", "number": 1, "lat": 58.2777689, "lon": -134.4080527, "geoAddress": "douglas, juneau, ak, usa" }, "geometry": { "type": "Point", "coordinates": [ 1129347.946332212071866, 1087563.976537880953401 ] } },
{ "type": "Feature", "properties": { "Program": "Individual Artist Award", "loc": "Fairbanks, AK", "number": 3, "lat": 64.8377778, "lon": -147.7163888, "geoAddress": "fairbanks, ak, usa" }, "geometry": { "type": "Point", "coordinates": [ 297698.805680004297756, 1667062.246194558683783 ] } },
{ "type": "Feature", "properties": { "Program": "Individual Artist Award", "loc": "Glennallen, AK", "number": 1, "lat": 62.1097214, "lon": -145.5573019, "geoAddress": "glennallen, ak 99588, usa" }, "geometry": { "type": "Point", "coordinates": [ 438145.108575917431153, 1376128.494001852814108 ] } },
{ "type": "Feature", "properties": { "Program": "Individual Artist Award", "loc": "Haines, AK", "number": 2, "lat": 59.2358333, "lon": -135.445, "geoAddress": "haines, ak 99827, usa" }, "geometry": { "type": "Point", "coordinates": [ 1041656.797530080773868, 1173309.8721018882934 ] } },
{ "type": "Feature", "properties": { "Program": "Individual Artist Award", "loc": "Homer, AK", "number": 4, "lat": 59.6425, "lon": -151.5483333, "geoAddress": "homer, ak, usa" }, "geometry": { "type": "Point", "coordinates": [ 137732.748759778391104, 1074855.125443534692749 ] } },
{ "type": "Feature", "properties": { "Program": "Individual Artist Award", "loc": "Juneau, AK", "number": 1, "lat": 58.3019444, "lon": -134.4197221, "geoAddress": "juneau, ak, usa" }, "geometry": { "type": "Point", "coordinates": [ 1127916.27416693395935, 1089943.44756529154256 ] } },
{ "type": "Feature", "properties": { "Program": "Individual Artist Award", "loc": "Ketchikan, AK", "number": 1, "lat": 55.3422222, "lon": -131.6461112, "geoAddress": "ketchikan, ak 99901, usa" }, "geometry": { "type": "Point", "coordinates": [ 1391073.174558876082301, 828570.945753015461378 ] } },
{ "type": "Feature", "properties": { "Program": "Individual Artist Award", "loc": "Klawock, AK", "number": 1, "lat": 55.5522222, "lon": -133.0958333, "geoAddress": "klawock, ak 99925, usa" }, "geometry": { "type": "Point", "coordinates": [ 1296725.112532290164381, 821398.159439916722476 ] } },
{ "type": "Feature", "properties": { "Program": "Individual Artist Award", "loc": "Kodiak, AK", "number": 1, "lat": 57.79, "lon": -152.4072221, "geoAddress": "kodiak, ak, usa" }, "geometry": { "type": "Point", "coordinates": [ 94458.122839667048538, 866399.072921882034279 ] } },
{ "type": "Feature", "properties": { "Program": "Individual Artist Award", "loc": "Metlakatla, AK", "number": 1, "lat": 55.1291667, "lon": -131.5722222, "geoAddress": "metlakatla, ak 99926, usa" }, "geometry": { "type": "Point", "coordinates": [ 1403355.227150327758864, 807741.078335025347769 ] } },
{ "type": "Feature", "properties": { "Program": "Individual Artist Award", "loc": "Seward, AK", "number": 1, "lat": 60.1041667, "lon": -149.4422222, "geoAddress": "seward, ak 99664, usa" }, "geometry": { "type": "Point", "coordinates": [ 252366.651282363018254, 1132607.951937836129218 ] } },
{ "type": "Feature", "properties": { "Program": "Individual Artist Award", "loc": "Shishmaref, AK", "number": 1, "lat": 66.2566667, "lon": -166.0719444, "geoAddress": "shishmaref, ak, usa" }, "geometry": { "type": "Point", "coordinates": [ -541068.097809522179887, 1860314.150789275066927 ] } },
{ "type": "Feature", "properties": { "Program": "Individual Artist Award", "loc": "Sitka, AK", "number": 1, "lat": 57.0530556, "lon": -135.33, "geoAddress": "sitka, ak, usa" }, "geometry": { "type": "Point", "coordinates": [ 1115596.048036590451375, 940841.507186913280748 ] } },
{ "type": "Feature", "properties": { "Program": "Individual Artist Award", "loc": "Unalaska, AK", "number": 1, "lat": 53.8844382, "lon": -166.5332434, "geoAddress": "unalaska, ak, usa" }, "geometry": { "type": "Point", "coordinates": [ -820577.365177442319691, 507690.410514188930392 ] } },
{ "type": "Feature", "properties": { "Program": "Sabbatical", "loc": "Anchorage, AK", "number": 3, "lat": 61.2180556, "lon": -149.9002778, "geoAddress": "anchorage, ak, usa" }, "geometry": { "type": "Point", "coordinates": [ 219349.579219708219171, 1255301.539725447306409 ] } },
{ "type": "Feature", "properties": { "Program": "Sabbatical", "loc": "Homer, AK", "number": 1, "lat": 59.6425, "lon": -151.5483333, "geoAddress": "homer, ak, usa" }, "geometry": { "type": "Point", "coordinates": [ 137732.748759778391104, 1074855.125443534692749 ] } },
{ "type": "Feature", "properties": { "Program": "Sabbatical", "loc": "Petersburg, AK", "number": 1, "lat": 56.8125, "lon": -132.9555556, "geoAddress": "petersburg, ak 99833, usa" }, "geometry": { "type": "Point", "coordinates": [ 1261341.504824838601053, 957673.759476577746682 ] } },
{ "type": "Feature", "properties": { "Program": "Sabbatical", "loc": "Port Heiden, AK", "number": 1, "lat": 56.9491667, "lon": -158.6269444, "geoAddress": "port heiden, ak, usa" }, "geometry": { "type": "Point", "coordinates": [ -280729.296905945986509, 781175.07547229307238 ] } },
{ "type": "Feature", "properties": { "Program": "Tier 1", "loc": "Anchor Point, AK", "number": 1, "lat": 59.7766667, "lon": -151.8313889, "geoAddress": "anchor point, ak, usa" }, "geometry": { "type": "Point", "coordinates": [ 121344.696952877377043, 1089300.741376652149484 ] } },
{ "type": "Feature", "properties": { "Program": "Tier 1", "loc": "Anchorage, AK", "number": 57, "lat": 61.2180556, "lon": -149.9002778, "geoAddress": "anchorage, ak, usa" }, "geometry": { "type": "Point", "coordinates": [ 219349.579219708219171, 1255301.539725447306409 ] } },
{ "type": "Feature", "properties": { "Program": "Tier 1", "loc": "Barrow, AK", "number": 1, "lat": 71.2905556, "lon": -156.788611, "geoAddress": "utqiagvik, ak 99723, usa" }, "geometry": { "type": "Point", "coordinates": [ -102347.93849687409238, 2368027.864846954122186 ] } },
{ "type": "Feature", "properties": { "Program": "Tier 1", "loc": "Bethel, AK", "number": 7, "lat": 60.7922222, "lon": -161.7558334, "geoAddress": "bethel, ak, usa" }, "geometry": { "type": "Point", "coordinates": [ -419835.813795704743825, 1225436.359509807312861 ] } },
{ "type": "Feature", "properties": { "Program": "Tier 1", "loc": "Big Delta, AK", "number": 1, "lat": 64.1525, "lon": -145.8422222, "geoAddress": "big delta, ak 99737, usa" }, "geometry": { "type": "Point", "coordinates": [ 395466.704410426784307, 1600823.327628919156268 ] } },
{ "type": "Feature", "properties": { "Program": "Tier 1", "loc": "Big Lake, AK", "number": 1, "lat": 61.5118164, "lon": -149.9663271, "geoAddress": "big lake, ak, usa" }, "geometry": { "type": "Point", "coordinates": [ 213828.781120564759476, 1287873.019718467025086 ] } },
{ "type": "Feature", "properties": { "Program": "Tier 1", "loc": "Chenega Bay, AK", "number": 1, "lat": 60.1003059, "lon": -147.9448419, "geoAddress": "chenega, ak 99574, usa" }, "geometry": { "type": "Point", "coordinates": [ 335116.442678856372368, 1138796.553177799563855 ] } },
{ "type": "Feature", "properties": { "Program": "Tier 1", "loc": "Chistochina, AK", "number": 1, "lat": 62.565, "lon": -144.6647222, "geoAddress": "chistochina, ak, usa" }, "geometry": { "type": "Point", "coordinates": [ 477044.830187730432954, 1432730.189676108770072 ] } },
{ "type": "Feature", "properties": { "Program": "Tier 1", "loc": "Chugiak, AK", "number": 1, "lat": 61.3888889, "lon": -149.4819445, "geoAddress": "chugiak, anchorage, ak 99567, usa" }, "geometry": { "type": "Point", "coordinates": [ 240404.010791223787237, 1275812.686967419926077 ] } },
{ "type": "Feature", "properties": { "Program": "Tier 1", "loc": "Clark's Point, AK", "number": 1, "lat": 58.8369548, "lon": -158.5267195, "geoAddress": "clark's point, ak, usa" }, "geometry": { "type": "Point", "coordinates": [ -260297.581179546861676, 991130.752267407719046 ] } },
{ "type": "Feature", "properties": { "Program": "Tier 1", "loc": "Cooper Landing, AK", "number": 1, "lat": 60.49, "lon": -149.8341667, "geoAddress": "cooper landing, ak 99572, usa" }, "geometry": { "type": "Point", "coordinates": [ 227986.491401282488368, 1174246.021237728418782 ] } },
{ "type": "Feature", "properties": { "Program": "Tier 1", "loc": "Cordova, AK", "number": 1, "lat": 60.5424087, "lon": -145.7525414, "geoAddress": "cordova, ak 99574, usa" }, "geometry": { "type": "Point", "coordinates": [ 449780.421582210808992, 1200918.63732697442174 ] } },
{ "type": "Feature", "properties": { "Program": "Tier 1", "loc": "Dillingham, AK", "number": 1, "lat": 59.0397222, "lon": -158.4575, "geoAddress": "dillingham, ak 99576, usa" }, "geometry": { "type": "Point", "coordinates": [ -254804.703457350289682, 1013469.364441295387223 ] } },
{ "type": "Feature", "properties": { "Program": "Tier 1", "loc": "Eagle River, AK", "number": 1, "lat": 61.3293186, "lon": -149.56805, "geoAddress": "eagle river, anchorage, ak 99577, usa" }, "geometry": { "type": "Point", "coordinates": [ 236274.098915619892068, 1268852.956187811447307 ] } },
{ "type": "Feature", "properties": { "Program": "Tier 1", "loc": "Eagle, AK", "number": 2, "lat": 64.7880556, "lon": -141.19999989999999, "geoAddress": "eagle, ak 99738, usa" }, "geometry": { "type": "Point", "coordinates": [ 604641.239875731291249, 1705875.25063711614348 ] } },
{ "type": "Feature", "properties": { "Program": "Tier 1", "loc": "Eklutna, AK", "number": 1, "lat": 61.4580556, "lon": -149.3622222, "geoAddress": "eklutna, anchorage, ak 99567, usa" }, "geometry": { "type": "Point", "coordinates": [ 246222.871635204181075, 1283972.325751308351755 ] } },
{ "type": "Feature", "properties": { "Program": "Tier 1", "loc": "Ester, AK", "number": 1, "lat": 64.8557761, "lon": -147.9783109, "geoAddress": "ester, ak 99709, usa" }, "geometry": { "type": "Point", "coordinates": [ 285143.742066630744375, 1667911.751339114503935 ] } },
{ "type": "Feature", "properties": { "Program": "Tier 1", "loc": "Fairbanks, AK", "number": 9, "lat": 64.8377778, "lon": -147.7163888, "geoAddress": "fairbanks, ak, usa" }, "geometry": { "type": "Point", "coordinates": [ 297698.805680004297756, 1667062.246194558683783 ] } },
{ "type": "Feature", "properties": { "Program": "Tier 1", "loc": "Galena, AK", "number": 1, "lat": 64.7333333, "lon": -156.9275, "geoAddress": "galena, ak 99741, usa" }, "geometry": { "type": "Point", "coordinates": [ -139372.26953198821866, 1644385.45252550416626 ] } },
{ "type": "Feature", "properties": { "Program": "Tier 1", "loc": "Haines, AK", "number": 1, "lat": 59.2358333, "lon": -135.445, "geoAddress": "haines, ak 99827, usa" }, "geometry": { "type": "Point", "coordinates": [ 1041656.797530080773868, 1173309.8721018882934 ] } },
{ "type": "Feature", "properties": { "Program": "Tier 1", "loc": "Homer, AK", "number": 6, "lat": 59.6425, "lon": -151.5483333, "geoAddress": "homer, ak, usa" }, "geometry": { "type": "Point", "coordinates": [ 137732.748759778391104, 1074855.125443534692749 ] } },
{ "type": "Feature", "properties": { "Program": "Tier 1", "loc": "Hydaburg, AK", "number": 1, "lat": 55.2080556, "lon": -132.8266667, "geoAddress": "hydaburg, ak, usa" }, "geometry": { "type": "Point", "coordinates": [ 1324865.880372878164053, 790289.210958161274903 ] } },
{ "type": "Feature", "properties": { "Program": "Tier 1", "loc": "Igiugig, AK", "number": 1, "lat": 59.3277778, "lon": -155.8947222, "geoAddress": "igiugig, ak, usa" }, "geometry": { "type": "Point", "coordinates": [ -107454.859001683857059, 1038657.291740282904357 ] } },
{ "type": "Feature", "properties": { "Program": "Tier 1", "loc": "Iliamna, AK", "number": 1, "lat": 59.7547222, "lon": -154.9061111, "geoAddress": "iliamna, ak 99606, usa" }, "geometry": { "type": "Point", "coordinates": [ -50742.114830305690703, 1085205.331820022780448 ] } },
{ "type": "Feature", "properties": { "Program": "Tier 1", "loc": "Juneau, AK", "number": 11, "lat": 58.3019444, "lon": -134.4197221, "geoAddress": "juneau, ak, usa" }, "geometry": { "type": "Point", "coordinates": [ 1127916.27416693395935, 1089943.44756529154256 ] } },
{ "type": "Feature", "properties": { "Program": "Tier 1", "loc": "Kenai, AK", "number": 2, "lat": 60.5544444, "lon": -151.2583333, "geoAddress": "kenai, ak, usa" }, "geometry": { "type": "Point", "coordinates": [ 149806.666806798573816, 1177388.756819732487202 ] } },
{ "type": "Feature", "properties": { "Program": "Tier 1", "loc": "Ketchikan, AK", "number": 1, "lat": 55.3422222, "lon": -131.6461112, "geoAddress": "ketchikan, ak 99901, usa" }, "geometry": { "type": "Point", "coordinates": [ 1391073.174558876082301, 828570.945753015461378 ] } },
{ "type": "Feature", "properties": { "Program": "Tier 1", "loc": "King Cove, AK", "number": 1, "lat": 55.0616667, "lon": -162.3102777, "geoAddress": "king cove, ak, usa" }, "geometry": { "type": "Point", "coordinates": [ -529566.295713740633801, 594159.464035410550423 ] } },
{ "type": "Feature", "properties": { "Program": "Tier 1", "loc": "Klukwan, AK", "number": 1, "lat": 59.4038889, "lon": -135.8844444, "geoAddress": "klukwan, ak 99827, usa" }, "geometry": { "type": "Point", "coordinates": [ 1012548.501303831930272, 1184597.217086905380711 ] } },
{ "type": "Feature", "properties": { "Program": "Tier 1", "loc": "Kodiak, AK", "number": 3, "lat": 57.79, "lon": -152.4072221, "geoAddress": "kodiak, ak, usa" }, "geometry": { "type": "Point", "coordinates": [ 94458.122839667048538, 866399.072921882034279 ] } },
{ "type": "Feature", "properties": { "Program": "Tier 1", "loc": "Kotzebue, AK", "number": 2, "lat": 66.8983333, "lon": -162.5966666, "geoAddress": "kotzebue, ak 99752, usa" }, "geometry": { "type": "Point", "coordinates": [ -377153.525014575279783, 1906744.475882716476917 ] } },
{ "type": "Feature", "properties": { "Program": "Tier 1", "loc": "Larsen Bay, AK", "number": 1, "lat": 57.54, "lon": -153.9786111, "geoAddress": "larsen bay, ak, usa" }, "geometry": { "type": "Point", "coordinates": [ 1278.206793284744208, 837346.385841486975551 ] } },
{ "type": "Feature", "properties": { "Program": "Tier 1", "loc": "Matanuska-Susitna Borough, AK", "number": 2, "lat": 62.2599347, "lon": -150.1729153, "geoAddress": "matanuska-susitna, ak, usa" }, "geometry": { "type": "Point", "coordinates": [ 198070.915342732856516, 1370744.029153476003557 ] } },
{ "type": "Feature", "properties": { "Program": "Tier 1", "loc": "McCarthy, AK", "number": 1, "lat": 61.4333333, "lon": -142.9216667, "geoAddress": "mccarthy, ak 99566, usa" }, "geometry": { "type": "Point", "coordinates": [ 586364.598855378571898, 1321618.370064821094275 ] } },
{ "type": "Feature", "properties": { "Program": "Tier 1", "loc": "Nenana, AK", "number": 1, "lat": 64.5638889, "lon": -149.0930556, "geoAddress": "nenana, ak 99760, usa" }, "geometry": { "type": "Point", "coordinates": [ 234865.542533232655842, 1631096.473826961126179 ] } },
{ "type": "Feature", "properties": { "Program": "Tier 1", "loc": "Nome, AK", "number": 2, "lat": 64.5011111, "lon": -165.4063889, "geoAddress": "nome, ak, usa" }, "geometry": { "type": "Point", "coordinates": [ -544971.699063097359613, 1662325.065829661674798 ] } },
{ "type": "Feature", "properties": { "Program": "Tier 1", "loc": "Palmer, AK", "number": 6, "lat": 61.5997222, "lon": -149.1127777, "geoAddress": "palmer, ak 99645, usa" }, "geometry": { "type": "Point", "coordinates": [ 258275.972270919155562, 1300715.432302634697407 ] } },
{ "type": "Feature", "properties": { "Program": "Tier 1", "loc": "Petersburg, AK", "number": 1, "lat": 56.8125, "lon": -132.9555556, "geoAddress": "petersburg, ak 99833, usa" }, "geometry": { "type": "Point", "coordinates": [ 1261341.504824838601053, 957673.759476577746682 ] } },
{ "type": "Feature", "properties": { "Program": "Tier 1", "loc": "Point MacKenzie, AK", "number": 1, "lat": 61.3597222, "lon": -149.9783332, "geoAddress": "point mackenzie, ak 99654, usa" }, "geometry": { "type": "Point", "coordinates": [ 214222.95791914279107, 1270854.498625308508053 ] } },
{ "type": "Feature", "properties": { "Program": "Tier 1", "loc": "Portage, AK", "number": 1, "lat": 60.831532, "lon": -148.9855041, "geoAddress": "portage, ak 99587, usa" }, "geometry": { "type": "Point", "coordinates": [ 271472.146940946346149, 1215542.754285749280825 ] } },
{ "type": "Feature", "properties": { "Program": "Tier 1", "loc": "Rampart, AK", "number": 1, "lat": 65.505, "lon": -150.1699999, "geoAddress": "rampart, ak, usa" }, "geometry": { "type": "Point", "coordinates": [ 177338.273794317472493, 1732448.569786001462489 ] } },
{ "type": "Feature", "properties": { "Program": "Tier 1", "loc": "Ruby, AK", "number": 1, "lat": 64.7394444, "lon": -155.4869445, "geoAddress": "ruby, ak 99768, usa" }, "geometry": { "type": "Point", "coordinates": [ -70790.041533344847267, 1642785.980130800046027 ] } },
{ "type": "Feature", "properties": { "Program": "Tier 1", "loc": "Saint Michael, AK", "number": 1, "lat": 63.471111, "lon": -162.053056, "geoAddress": "st michael, AK, usa" }, "geometry": { "type": "Point", "coordinates": [ -399620.980594216322061, 1524667.826122167753056 ] } },
{ "type": "Feature", "properties": { "Program": "Tier 1", "loc": "Saint Paul, AK", "number": 1, "lat": 57.1224981, "lon": -170.2799461, "geoAddress": "st paul, ak, usa" }, "geometry": { "type": "Point", "coordinates": [ -973989.464364527375437, 910716.779766581370495 ] } },
{ "type": "Feature", "properties": { "Program": "Tier 1", "loc": "Saxman, AK", "number": 1, "lat": 55.3183333, "lon": -131.5958333, "geoAddress": "saxman, ak 99901, usa" }, "geometry": { "type": "Point", "coordinates": [ 1394964.880947723286226, 827113.823199480073527 ] } },
{ "type": "Feature", "properties": { "Program": "Tier 1", "loc": "Seward, AK", "number": 2, "lat": 60.1041667, "lon": -149.4422222, "geoAddress": "seward, ak 99664, usa" }, "geometry": { "type": "Point", "coordinates": [ 252366.651282363018254, 1132607.951937836129218 ] } },
{ "type": "Feature", "properties": { "Program": "Tier 1", "loc": "Silver Salmon, AK", "number": 1, "lat": 61.8411077, "lon": -150.0930186, "geoAddress": "sword tail cir, willow, ak 99688, usa" }, "geometry": { "type": "Point", "coordinates": [ 204954.890283464308595, 1324235.147716417443007 ] } },
{ "type": "Feature", "properties": { "Program": "Tier 1", "loc": "Sitka, AK", "number": 5, "lat": 57.0530556, "lon": -135.33, "geoAddress": "sitka, ak, usa" }, "geometry": { "type": "Point", "coordinates": [ 1115596.048036590451375, 940841.507186913280748 ] } },
{ "type": "Feature", "properties": { "Program": "Tier 1", "loc": "Soldotna, AK", "number": 3, "lat": 60.4877778, "lon": -151.0583332, "geoAddress": "soldotna, ak 99669, usa" }, "geometry": { "type": "Point", "coordinates": [ 161057.61945616293815, 1170414.737906678114086 ] } },
{ "type": "Feature", "properties": { "Program": "Tier 1", "loc": "Talkeetna, AK", "number": 2, "lat": 62.3209046, "lon": -150.1066221, "geoAddress": "talkeetna, ak 99676, usa" }, "geometry": { "type": "Point", "coordinates": [ 201098.741459624201525, 1377752.135094152763486 ] } },
{ "type": "Feature", "properties": { "Program": "Tier 1", "loc": "Tanana, AK", "number": 1, "lat": 65.1719444, "lon": -152.0788889, "geoAddress": "tanana, ak, usa" }, "geometry": { "type": "Point", "coordinates": [ 90062.020840410943492, 1691520.094583903905004 ] } },
{ "type": "Feature", "properties": { "Program": "Tier 1", "loc": "Tazlina, AK", "number": 1, "lat": 62.0462375, "lon": -145.4085587, "geoAddress": "tazlina, ak, usa" }, "geometry": { "type": "Point", "coordinates": [ 446735.390661572979297, 1370076.884704164694995 ] } },
{ "type": "Feature", "properties": { "Program": "Tier 1", "loc": "Tetlin, AK", "number": 1, "lat": 63.1372222, "lon": -142.5161111, "geoAddress": "tetlin, ak 99780, usa" }, "geometry": { "type": "Point", "coordinates": [ 574843.769236158463173, 1512927.329487020382658 ] } },
{ "type": "Feature", "properties": { "Program": "Tier 1", "loc": "Togiak, AK", "number": 1, "lat": 59.0619444, "lon": -160.3763889, "geoAddress": "togiak, ak, usa" }, "geometry": { "type": "Point", "coordinates": [ -363970.767561104614288, 1024883.310229347436689 ] } },
{ "type": "Feature", "properties": { "Program": "Tier 1", "loc": "Utqiaġvik, AK", "number": 2, "lat": 71.2905556, "lon": -156.788611, "geoAddress": "utqiagvik, ak 99723, usa" }, "geometry": { "type": "Point", "coordinates": [ -102347.93849687409238, 2368027.864846954122186 ] } },
{ "type": "Feature", "properties": { "Program": "Tier 1", "loc": "Wasilla, AK", "number": 3, "lat": 61.5813889, "lon": -149.4394444, "geoAddress": "wasilla, ak 99654, usa" }, "geometry": { "type": "Point", "coordinates": [ 241184.552199959551217, 1297445.826042972970754 ] } },
{ "type": "Feature", "properties": { "Program": "Tier 1", "loc": "Yakutat, AK", "number": 1, "lat": 59.5469878, "lon": -139.7272808, "geoAddress": "yakutat, ak, usa" }, "geometry": { "type": "Point", "coordinates": [ 798118.382025446626358, 1147728.945209515746683 ] } },
{ "type": "Feature", "properties": { "Program": "Tier 2", "loc": "Anchorage, AK", "number": 13, "lat": 61.2180556, "lon": -149.9002778, "geoAddress": "anchorage, ak, usa" }, "geometry": { "type": "Point", "coordinates": [ 219349.579219708219171, 1255301.539725447306409 ] } },
{ "type": "Feature", "properties": { "Program": "Tier 2", "loc": "Bethel, AK", "number": 1, "lat": 60.7922222, "lon": -161.7558334, "geoAddress": "bethel, ak, usa" }, "geometry": { "type": "Point", "coordinates": [ -419835.813795704743825, 1225436.359509807312861 ] } },
{ "type": "Feature", "properties": { "Program": "Tier 2", "loc": "Circle, AK", "number": 1, "lat": 65.8255556, "lon": -144.0605556, "geoAddress": "circle, ak, usa" }, "geometry": { "type": "Point", "coordinates": [ 453433.115433694445528, 1797029.338948623510078 ] } },
{ "type": "Feature", "properties": { "Program": "Tier 2", "loc": "Denali National Park, AK", "number": 1, "lat": 63.7323, "lon": -148.9169, "geoAddress": "denali national park and preserve, george parks hwy, denali national park and preserve, ak, usa" }, "geometry": { "type": "Point", "coordinates": [ 250381.397437746403739, 1539171.554946917574853 ] } },
{ "type": "Feature", "properties": { "Program": "Tier 2", "loc": "Eklutna, AK", "number": 1, "lat": 61.4580556, "lon": -149.3622222, "geoAddress": "eklutna, anchorage, ak 99567, usa" }, "geometry": { "type": "Point", "coordinates": [ 246222.871635204181075, 1283972.325751308351755 ] } },
{ "type": "Feature", "properties": { "Program": "Tier 2", "loc": "Fairbanks, AK", "number": 1, "lat": 64.8377778, "lon": -147.7163888, "geoAddress": "fairbanks, ak, usa" }, "geometry": { "type": "Point", "coordinates": [ 297698.805680004297756, 1667062.246194558683783 ] } },
{ "type": "Feature", "properties": { "Program": "Tier 2", "loc": "Gustavus, AK", "number": 1, "lat": 58.4133333, "lon": -135.7369443, "geoAddress": "gustavus, ak 99826, usa" }, "geometry": { "type": "Point", "coordinates": [ 1050653.586330072721466, 1080284.720869475277141 ] } },
{ "type": "Feature", "properties": { "Program": "Tier 2", "loc": "Homer, AK", "number": 1, "lat": 59.6425, "lon": -151.5483333, "geoAddress": "homer, ak, usa" }, "geometry": { "type": "Point", "coordinates": [ 137732.748759778391104, 1074855.125443534692749 ] } },
{ "type": "Feature", "properties": { "Program": "Tier 2", "loc": "Juneau, AK", "number": 1, "lat": 58.3019444, "lon": -134.4197221, "geoAddress": "juneau, ak, usa" }, "geometry": { "type": "Point", "coordinates": [ 1127916.27416693395935, 1089943.44756529154256 ] } },
{ "type": "Feature", "properties": { "Program": "Tier 2", "loc": "Kenai, AK", "number": 1, "lat": 60.5544444, "lon": -151.2583333, "geoAddress": "kenai, ak, usa" }, "geometry": { "type": "Point", "coordinates": [ 149806.666806798573816, 1177388.756819732487202 ] } },
{ "type": "Feature", "properties": { "Program": "Tier 2", "loc": "Knik-Fairview, AK", "number": 1, "lat": 61.5158655, "lon": -149.6120203, "geoAddress": "knik-fairview, ak 99654, usa" }, "geometry": { "type": "Point", "coordinates": [ 232553.920788826362696, 1289521.362490643979982 ] } },
{ "type": "Feature", "properties": { "Program": "Tier 2", "loc": "Palmer, AK", "number": 1, "lat": 61.5997222, "lon": -149.1127777, "geoAddress": "palmer, ak 99645, usa" }, "geometry": { "type": "Point", "coordinates": [ 258275.972270919155562, 1300715.432302634697407 ] } },
{ "type": "Feature", "properties": { "Program": "Tier 2", "loc": "Portage, AK", "number": 1, "lat": 60.831532, "lon": -148.9855041, "geoAddress": "portage, ak 99587, usa" }, "geometry": { "type": "Point", "coordinates": [ 271472.146940946346149, 1215542.754285749280825 ] } },
{ "type": "Feature", "properties": { "Program": "Tier 2", "loc": "Sitka, AK", "number": 1, "lat": 57.0530556, "lon": -135.33, "geoAddress": "sitka, ak, usa" }, "geometry": { "type": "Point", "coordinates": [ 1115596.048036590451375, 940841.507186913280748 ] } },
{ "type": "Feature", "properties": { "Program": "Tier 2", "loc": "Sterling, AK", "number": 1, "lat": 60.5372222, "lon": -150.7647222, "geoAddress": "sterling, ak, usa" }, "geometry": { "type": "Point", "coordinates": [ 176850.973884721897775, 1176680.887431325390935 ] } },
{ "type": "Feature", "properties": { "Program": "Tier 2", "loc": "Utqiaġvik, AK", "number": 1, "lat": 71.2905556, "lon": -156.788611, "geoAddress": "utqiagvik, ak 99723, usa" }, "geometry": { "type": "Point", "coordinates": [ -102347.93849687409238, 2368027.864846954122186 ] } },
{ "type": "Feature", "properties": { "Program": "Tier 2", "loc": "Wasilla, AK", "number": 2, "lat": 61.5813889, "lon": -149.4394444, "geoAddress": "wasilla, ak 99654, usa" }, "geometry": { "type": "Point", "coordinates": [ 241184.552199959551217, 1297445.826042972970754 ] } }
]
}
