{
"type": "FeatureCollection",
"name": "cities",
"crs": { "type": "name", "properties": { "name": "urn:ogc:def:crs:OGC:1.3:CRS84" } },
"features": [
{ "type": "Feature", "properties": { "Community Name": "Anchorage", "lat": 61.2163, "lon": -149.8948 }, "geometry": { "type": "Point", "coordinates": [ -149.8948, 61.2163 ] } },
{ "type": "Feature", "properties": { "Community Name": "Bethel", "lat": 60.8021, "lon": -161.7706 }, "geometry": { "type": "Point", "coordinates": [ -161.7706, 60.8021 ] } },
{ "type": "Feature", "properties": { "Community Name": "Fairbanks", "lat": 64.8357, "lon": -147.7336 }, "geometry": { "type": "Point", "coordinates": [ -147.7336, 64.8357 ] } },
{ "type": "Feature", "properties": { "Community Name": "Juneau", "lat": 58.3021, "lon": -134.4106 }, "geometry": { "type": "Point", "coordinates": [ -134.4106, 58.3021 ] } },
{ "type": "Feature", "properties": { "Community Name": "Kotzebue", "lat": 66.8959, "lon": -162.5869 }, "geometry": { "type": "Point", "coordinates": [ -162.5869, 66.8959 ] } },
{ "type": "Feature", "properties": { "Community Name": "Nome", "lat": 64.4976, "lon": -165.3841 }, "geometry": { "type": "Point", "coordinates": [ -165.3841, 64.4976 ] } },
{ "type": "Feature", "properties": { "Community Name": "Sitka", "lat": 57.0583, "lon": -135.3448 }, "geometry": { "type": "Point", "coordinates": [ -135.3448, 57.0583 ] } }
]
}
