{
"type": "FeatureCollection",
"name": "ras_ak_geo_3_30",
"crs": { "type": "name", "properties": { "name": "urn:ogc:def:crs:EPSG::3338" } },
"features": [
{ "type": "Feature", "properties": { "Program": "Foundation Initiative", "ProjectLocationMatch": "Anchorage", "number": 4, "lat": 61.2163, "lon": -149.8948 }, "geometry": { "type": "Point", "coordinates": [ 219655.912318238231819, 1255118.780564485117793 ] } },
{ "type": "Feature", "properties": { "Program": "Individual Artist Awards", "ProjectLocationMatch": "Anchorage", "number": 10, "lat": 61.2163, "lon": -149.8948 }, "geometry": { "type": "Point", "coordinates": [ 219655.912318238231819, 1255118.780564485117793 ] } },
{ "type": "Feature", "properties": { "Program": "Individual Artist Awards", "ProjectLocationMatch": "Bethel", "number": 1, "lat": 60.8021, "lon": -161.7706 }, "geometry": { "type": "Point", "coordinates": [ -420504.043071914813481, 1226629.731293136253953 ] } },
{ "type": "Feature", "properties": { "Program": "Individual Artist Awards", "ProjectLocationMatch": "Big Lake", "number": 1, "lat": 61.5399, "lon": -149.819 }, "geometry": { "type": "Point", "coordinates": [ 221429.380749617848778, 1291492.41047471947968 ] } },
{ "type": "Feature", "properties": { "Program": "Individual Artist Awards", "ProjectLocationMatch": "Chevak", "number": 1, "lat": 61.531, "lon": -165.5859 }, "geometry": { "type": "Point", "coordinates": [ -611067.746788432239555, 1336962.788375797914341 ] } },
{ "type": "Feature", "properties": { "Program": "Individual Artist Awards", "ProjectLocationMatch": "Coffman Cove", "number": 1, "lat": 56.0141, "lon": -132.828 }, "geometry": { "type": "Point", "coordinates": [ 1296639.940023176837713, 875542.640695018460974 ] } },
{ "type": "Feature", "properties": { "Program": "Individual Artist Awards", "ProjectLocationMatch": "Cordova", "number": 1, "lat": 60.5403, "lon": -145.7588 }, "geometry": { "type": "Point", "coordinates": [ 449467.686819707334507, 1200642.915459002135321 ] } },
{ "type": "Feature", "properties": { "Program": "Individual Artist Awards", "ProjectLocationMatch": "Douglas", "number": 1, "lat": 58.2792, "lon": -134.4009 }, "geometry": { "type": "Point", "coordinates": [ 1129705.364593363367021, 1087836.105774729512632 ] } },
{ "type": "Feature", "properties": { "Program": "Individual Artist Awards", "ProjectLocationMatch": "Eagle River", "number": 1, "lat": 61.3151, "lon": -149.5465 }, "geometry": { "type": "Point", "coordinates": [ 237524.992867036169628, 1267345.019431275781244 ] } },
{ "type": "Feature", "properties": { "Program": "Individual Artist Awards", "ProjectLocationMatch": "Ester", "number": 1, "lat": 64.8554, "lon": -147.9768 }, "geometry": { "type": "Point", "coordinates": [ 285218.616443846898619, 1667873.768390492070466 ] } },
{ "type": "Feature", "properties": { "Program": "Individual Artist Awards", "ProjectLocationMatch": "Fairbanks", "number": 5, "lat": 64.8357, "lon": -147.7336 }, "geometry": { "type": "Point", "coordinates": [ 296908.40806576248724, 1666752.094835825264454 ] } },
{ "type": "Feature", "properties": { "Program": "Individual Artist Awards", "ProjectLocationMatch": "Fritz Creek", "number": 1, "lat": 59.7254, "lon": -151.2987 }, "geometry": { "type": "Point", "coordinates": [ 151370.553011209471151, 1084661.629391842521727 ] } },
{ "type": "Feature", "properties": { "Program": "Individual Artist Awards", "ProjectLocationMatch": "Haines", "number": 1, "lat": 59.2345, "lon": -135.453 }, "geometry": { "type": "Point", "coordinates": [ 1041259.491688226698898, 1173044.706667546415702 ] } },
{ "type": "Feature", "properties": { "Program": "Individual Artist Awards", "ProjectLocationMatch": "Juneau", "number": 2, "lat": 58.3021, "lon": -134.4106 }, "geometry": { "type": "Point", "coordinates": [ 1128418.691113365115598, 1090119.418103978503495 ] } },
{ "type": "Feature", "properties": { "Program": "Individual Artist Awards", "ProjectLocationMatch": "Ketchikan", "number": 1, "lat": 55.3535, "lon": -131.6774 }, "geometry": { "type": "Point", "coordinates": [ 1388784.231023370521143, 829103.924517063540407 ] } },
{ "type": "Feature", "properties": { "Program": "Individual Artist Awards", "ProjectLocationMatch": "McCarthy", "number": 1, "lat": 61.4331, "lon": -142.9101 }, "geometry": { "type": "Point", "coordinates": [ 586976.57991994637996, 1321698.786115555325523 ] } },
{ "type": "Feature", "properties": { "Program": "Individual Artist Awards", "ProjectLocationMatch": "Nome", "number": 2, "lat": 64.4976, "lon": -165.3841 }, "geometry": { "type": "Point", "coordinates": [ -543983.338663210393861, 1661757.447109572356567 ] } },
{ "type": "Feature", "properties": { "Program": "Individual Artist Awards", "ProjectLocationMatch": "Sitka", "number": 4, "lat": 57.0583, "lon": -135.3448 }, "geometry": { "type": "Point", "coordinates": [ 1114574.190823749639094, 941150.634698149980977 ] } },
{ "type": "Feature", "properties": { "Program": "Individual Artist Awards", "ProjectLocationMatch": "Wasilla", "number": 1, "lat": 61.5845, "lon": -149.4339 }, "geometry": { "type": "Point", "coordinates": [ 241451.139631823956734, 1297811.691704409662634 ] } },
{ "type": "Feature", "properties": { "Program": "Large Grants", "ProjectLocationMatch": "Anchorage", "number": 12, "lat": 61.2163, "lon": -149.8948 }, "geometry": { "type": "Point", "coordinates": [ 219655.912318238231819, 1255118.780564485117793 ] } },
{ "type": "Feature", "properties": { "Program": "Large Grants", "ProjectLocationMatch": "Cordova", "number": 1, "lat": 60.5403, "lon": -145.7588 }, "geometry": { "type": "Point", "coordinates": [ 449467.686819707334507, 1200642.915459002135321 ] } },
{ "type": "Feature", "properties": { "Program": "Large Grants", "ProjectLocationMatch": "Fairbanks", "number": 2, "lat": 64.8357, "lon": -147.7336 }, "geometry": { "type": "Point", "coordinates": [ 296908.40806576248724, 1666752.094835825264454 ] } },
{ "type": "Feature", "properties": { "Program": "Large Grants", "ProjectLocationMatch": "Juneau", "number": 2, "lat": 58.3021, "lon": -134.4106 }, "geometry": { "type": "Point", "coordinates": [ 1128418.691113365115598, 1090119.418103978503495 ] } },
{ "type": "Feature", "properties": { "Program": "Large Grants", "ProjectLocationMatch": "Kodiak", "number": 1, "lat": 57.7962, "lon": -152.3898 }, "geometry": { "type": "Point", "coordinates": [ 95473.008638996601803, 867116.249898950220086 ] } },
{ "type": "Feature", "properties": { "Program": "Large Grants", "ProjectLocationMatch": "Naknek", "number": 1, "lat": 58.7331, "lon": -157.0052 }, "geometry": { "type": "Point", "coordinates": [ -173407.399288242828334, 974566.872702791006304 ] } },
{ "type": "Feature", "properties": { "Program": "Large Grants", "ProjectLocationMatch": "Palmer", "number": 2, "lat": 61.5934, "lon": -149.1093 }, "geometry": { "type": "Point", "coordinates": [ 258512.444195170828607, 1300026.38009703438729 ] } },
{ "type": "Feature", "properties": { "Program": "Large Grants", "ProjectLocationMatch": "Petersburg", "number": 1, "lat": 56.8143, "lon": -132.9523 }, "geometry": { "type": "Point", "coordinates": [ 1261470.034259720006958, 957927.291891801171005 ] } },
{ "type": "Feature", "properties": { "Program": "Large Grants", "ProjectLocationMatch": "Sitka", "number": 1, "lat": 57.0583, "lon": -135.3448 }, "geometry": { "type": "Point", "coordinates": [ 1114574.190823749639094, 941150.634698149980977 ] } },
{ "type": "Feature", "properties": { "Program": "Large Grants", "ProjectLocationMatch": "Soldotna", "number": 1, "lat": 60.4918, "lon": -151.0691 }, "geometry": { "type": "Point", "coordinates": [ 160446.968046060443157, 1170835.539625447941944 ] } },
{ "type": "Feature", "properties": { "Program": "Large Grants", "ProjectLocationMatch": "Tok", "number": 1, "lat": 63.3367, "lon": -142.9856 }, "geometry": { "type": "Point", "coordinates": [ 547882.586535850423388, 1530931.546191917499527 ] } },
{ "type": "Feature", "properties": { "Program": "Large Grants", "ProjectLocationMatch": "Wasilla", "number": 4, "lat": 61.5845, "lon": -149.4339 }, "geometry": { "type": "Point", "coordinates": [ 241451.139631823956734, 1297811.691704409662634 ] } },
{ "type": "Feature", "properties": { "Program": "Large Grants", "ProjectLocationMatch": "Willow", "number": 1, "lat": 61.7381, "lon": -150.0441 }, "geometry": { "type": "Point", "coordinates": [ 208202.815364287467673, 1312888.754255125299096 ] } },
{ "type": "Feature", "properties": { "Program": "Large Grants", "ProjectLocationMatch": "Yakutat", "number": 1, "lat": 59.5465, "lon": -139.7228 }, "geometry": { "type": "Point", "coordinates": [ 798378.057578928302974, 1147728.412052380619571 ] } },
{ "type": "Feature", "properties": { "Program": "Program-Related Investments", "ProjectLocationMatch": "Anchorage", "number": 1, "lat": 61.2163, "lon": -149.8948 }, "geometry": { "type": "Point", "coordinates": [ 219655.912318238231819, 1255118.780564485117793 ] } },
{ "type": "Feature", "properties": { "Program": "Program-Related Investments", "ProjectLocationMatch": "Juneau", "number": 1, "lat": 58.3021, "lon": -134.4106 }, "geometry": { "type": "Point", "coordinates": [ 1128418.691113365115598, 1090119.418103978503495 ] } },
{ "type": "Feature", "properties": { "Program": "Sabbatical", "ProjectLocationMatch": "Anchorage", "number": 2, "lat": 61.2163, "lon": -149.8948 }, "geometry": { "type": "Point", "coordinates": [ 219655.912318238231819, 1255118.780564485117793 ] } },
{ "type": "Feature", "properties": { "Program": "Sabbatical", "ProjectLocationMatch": "Karluk", "number": 1, "lat": 57.5625, "lon": -154.4367 }, "geometry": { "type": "Point", "coordinates": [ -26067.071466639819846, 839944.435645480873063 ] } },
{ "type": "Feature", "properties": { "Program": "Sabbatical", "ProjectLocationMatch": "Seward", "number": 1, "lat": 60.13, "lon": -149.4433 }, "geometry": { "type": "Point", "coordinates": [ 252108.015963910904247, 1135482.402318878797814 ] } },
{ "type": "Feature", "properties": { "Program": "Sabbatical", "ProjectLocationMatch": "Skagway", "number": 1, "lat": 59.4632, "lon": -135.3076 }, "geometry": { "type": "Point", "coordinates": [ 1042104.084110978059471, 1199897.481423425488174 ] } },
{ "type": "Feature", "properties": { "Program": "Small Grants", "ProjectLocationMatch": "Anchorage", "number": 46, "lat": 61.2163, "lon": -149.8948 }, "geometry": { "type": "Point", "coordinates": [ 219655.912318238231819, 1255118.780564485117793 ] } },
{ "type": "Feature", "properties": { "Program": "Small Grants", "ProjectLocationMatch": "Bethel", "number": 5, "lat": 60.8021, "lon": -161.7706 }, "geometry": { "type": "Point", "coordinates": [ -420504.043071914813481, 1226629.731293136253953 ] } },
{ "type": "Feature", "properties": { "Program": "Small Grants", "ProjectLocationMatch": "Bettles", "number": 1, "lat": 66.9164, "lon": -151.5188 }, "geometry": { "type": "Point", "coordinates": [ 109059.088674903512583, 1886346.829031809931621 ] } },
{ "type": "Feature", "properties": { "Program": "Small Grants", "ProjectLocationMatch": "Brevig Mission", "number": 1, "lat": 65.3333, "lon": -166.4879 }, "geometry": { "type": "Point", "coordinates": [ -578713.117143531912006, 1762775.775085758185014 ] } },
{ "type": "Feature", "properties": { "Program": "Small Grants", "ProjectLocationMatch": "Chugiak", "number": 1, "lat": 61.3699, "lon": -149.5352 }, "geometry": { "type": "Point", "coordinates": [ 237715.02237177445204, 1273500.666473863413557 ] } },
{ "type": "Feature", "properties": { "Program": "Small Grants", "ProjectLocationMatch": "Copper Center", "number": 1, "lat": 61.955, "lon": -145.3053 }, "geometry": { "type": "Point", "coordinates": [ 453407.617768720956519, 1360664.884505112655461 ] } },
{ "type": "Feature", "properties": { "Program": "Small Grants", "ProjectLocationMatch": "Cordova", "number": 2, "lat": 60.5403, "lon": -145.7588 }, "geometry": { "type": "Point", "coordinates": [ 449467.686819707334507, 1200642.915459002135321 ] } },
{ "type": "Feature", "properties": { "Program": "Small Grants", "ProjectLocationMatch": "Dillingham", "number": 2, "lat": 59.0406, "lon": -158.4656 }, "geometry": { "type": "Point", "coordinates": [ -255260.267240260465769, 1013600.85528827982489 ] } },
{ "type": "Feature", "properties": { "Program": "Small Grants", "ProjectLocationMatch": "Eagle River", "number": 3, "lat": 61.3151, "lon": -149.5465 }, "geometry": { "type": "Point", "coordinates": [ 237524.992867036169628, 1267345.019431275781244 ] } },
{ "type": "Feature", "properties": { "Program": "Small Grants", "ProjectLocationMatch": "Eklutna", "number": 1, "lat": 61.461, "lon": -149.362 }, "geometry": { "type": "Point", "coordinates": [ 246210.839712862187298, 1284296.616210864856839 ] } },
{ "type": "Feature", "properties": { "Program": "Small Grants", "ProjectLocationMatch": "Ester", "number": 1, "lat": 64.8554, "lon": -147.9768 }, "geometry": { "type": "Point", "coordinates": [ 285218.616443846898619, 1667873.768390492070466 ] } },
{ "type": "Feature", "properties": { "Program": "Small Grants", "ProjectLocationMatch": "Evansville", "number": 1, "lat": 66.9246, "lon": -151.5058 }, "geometry": { "type": "Point", "coordinates": [ 109596.040776932655717, 1887277.998709606938064 ] } },
{ "type": "Feature", "properties": { "Program": "Small Grants", "ProjectLocationMatch": "Fairbanks", "number": 16, "lat": 64.8357, "lon": -147.7336 }, "geometry": { "type": "Point", "coordinates": [ 296908.40806576248724, 1666752.094835825264454 ] } },
{ "type": "Feature", "properties": { "Program": "Small Grants", "ProjectLocationMatch": "Fort Yukon", "number": 1, "lat": 66.564, "lon": -145.259 }, "geometry": { "type": "Point", "coordinates": [ 388321.489010176097509, 1870757.388208172749728 ] } },
{ "type": "Feature", "properties": { "Program": "Small Grants", "ProjectLocationMatch": "Gustavus", "number": 1, "lat": 58.4189, "lon": -135.7104 }, "geometry": { "type": "Point", "coordinates": [ 1051969.217627558391541, 1081306.464951422763988 ] } },
{ "type": "Feature", "properties": { "Program": "Small Grants", "ProjectLocationMatch": "Haines", "number": 3, "lat": 59.2345, "lon": -135.453 }, "geometry": { "type": "Point", "coordinates": [ 1041259.491688226698898, 1173044.706667546415702 ] } },
{ "type": "Feature", "properties": { "Program": "Small Grants", "ProjectLocationMatch": "Homer", "number": 4, "lat": 59.6434, "lon": -151.5555 }, "geometry": { "type": "Point", "coordinates": [ 137324.743179728568066, 1074940.786560657899827 ] } },
{ "type": "Feature", "properties": { "Program": "Small Grants", "ProjectLocationMatch": "Huslia", "number": 2, "lat": 65.7018, "lon": -156.3892 }, "geometry": { "type": "Point", "coordinates": [ -109874.877932450166554, 1751227.817031943472102 ] } },
{ "type": "Feature", "properties": { "Program": "Small Grants", "ProjectLocationMatch": "Hydaburg", "number": 2, "lat": 55.2071, "lon": -132.8261 }, "geometry": { "type": "Point", "coordinates": [ 1324937.048770800698549, 790195.435488792019896 ] } },
{ "type": "Feature", "properties": { "Program": "Small Grants", "ProjectLocationMatch": "Juneau", "number": 13, "lat": 58.3021, "lon": -134.4106 }, "geometry": { "type": "Point", "coordinates": [ 1128418.691113365115598, 1090119.418103978503495 ] } },
{ "type": "Feature", "properties": { "Program": "Small Grants", "ProjectLocationMatch": "Kake", "number": 2, "lat": 56.9772, "lon": -133.9472 }, "geometry": { "type": "Point", "coordinates": [ 1198306.2929934381973, 956818.058366309851408 ] } },
{ "type": "Feature", "properties": { "Program": "Small Grants", "ProjectLocationMatch": "Kaltag", "number": 1, "lat": 64.3247, "lon": -158.7238 }, "geometry": { "type": "Point", "coordinates": [ -228013.620524580881465, 1603836.872389147523791 ] } },
{ "type": "Feature", "properties": { "Program": "Small Grants", "ProjectLocationMatch": "Kasilof", "number": 1, "lat": 60.3249, "lon": -151.2568 }, "geometry": { "type": "Point", "coordinates": [ 150948.543597394775134, 1151745.728237947216257 ] } },
{ "type": "Feature", "properties": { "Program": "Small Grants", "ProjectLocationMatch": "Kenai", "number": 3, "lat": 60.5537, "lon": -151.2546 }, "geometry": { "type": "Point", "coordinates": [ 150011.955587124655722, 1177318.883383672917262 ] } },
{ "type": "Feature", "properties": { "Program": "Small Grants", "ProjectLocationMatch": "Kenny Lake", "number": 1, "lat": 61.7301, "lon": -144.9369 }, "geometry": { "type": "Point", "coordinates": [ 475923.46822366269771, 1338316.326031162170693 ] } },
{ "type": "Feature", "properties": { "Program": "Small Grants", "ProjectLocationMatch": "Ketchikan", "number": 2, "lat": 55.3535, "lon": -131.6774 }, "geometry": { "type": "Point", "coordinates": [ 1388784.231023370521143, 829103.924517063540407 ] } },
{ "type": "Feature", "properties": { "Program": "Small Grants", "ProjectLocationMatch": "King Cove", "number": 2, "lat": 55.0607, "lon": -162.3161 }, "geometry": { "type": "Point", "coordinates": [ -529947.867227593204007, 594095.267796087544411 ] } },
{ "type": "Feature", "properties": { "Program": "Small Grants", "ProjectLocationMatch": "Kodiak", "number": 6, "lat": 57.7962, "lon": -152.3898 }, "geometry": { "type": "Point", "coordinates": [ 95473.008638996601803, 867116.249898950220086 ] } },
{ "type": "Feature", "properties": { "Program": "Small Grants", "ProjectLocationMatch": "Koliganek", "number": 1, "lat": 59.7264, "lon": -157.2857 }, "geometry": { "type": "Point", "coordinates": [ -184088.225331964204088, 1086249.326682937564328 ] } },
{ "type": "Feature", "properties": { "Program": "Small Grants", "ProjectLocationMatch": "Manley Hot Springs", "number": 1, "lat": 64.9959, "lon": -150.6372 }, "geometry": { "type": "Point", "coordinates": [ 158597.228032333572628, 1674613.691732186358422 ] } },
{ "type": "Feature", "properties": { "Program": "Small Grants", "ProjectLocationMatch": "McCarthy", "number": 1, "lat": 61.4331, "lon": -142.9101 }, "geometry": { "type": "Point", "coordinates": [ 586976.57991994637996, 1321698.786115555325523 ] } },
{ "type": "Feature", "properties": { "Program": "Small Grants", "ProjectLocationMatch": "Metlakatla", "number": 1, "lat": 55.1262, "lon": -131.5773 }, "geometry": { "type": "Point", "coordinates": [ 1403158.980938895139843, 807318.145989900804125 ] } },
{ "type": "Feature", "properties": { "Program": "Small Grants", "ProjectLocationMatch": "Palmer", "number": 3, "lat": 61.5934, "lon": -149.1093 }, "geometry": { "type": "Point", "coordinates": [ 258512.444195170828607, 1300026.38009703438729 ] } },
{ "type": "Feature", "properties": { "Program": "Small Grants", "ProjectLocationMatch": "Pelican", "number": 1, "lat": 57.9568, "lon": -136.222 }, "geometry": { "type": "Point", "coordinates": [ 1036916.77761353936512, 1023522.196636903332546 ] } },
{ "type": "Feature", "properties": { "Program": "Small Grants", "ProjectLocationMatch": "Petersburg", "number": 2, "lat": 56.8143, "lon": -132.9523 }, "geometry": { "type": "Point", "coordinates": [ 1261470.034259720006958, 957927.291891801171005 ] } },
{ "type": "Feature", "properties": { "Program": "Small Grants", "ProjectLocationMatch": "Pitkas Point", "number": 1, "lat": 62.0318, "lon": -163.287 }, "geometry": { "type": "Point", "coordinates": [ -482902.459960805135779, 1373349.824527843622491 ] } },
{ "type": "Feature", "properties": { "Program": "Small Grants", "ProjectLocationMatch": "Portage", "number": 1, "lat": 60.8321, "lon": -148.9852 }, "geometry": { "type": "Point", "coordinates": [ 271483.29462948179571, 1215610.89804630423896 ] } },
{ "type": "Feature", "properties": { "Program": "Small Grants", "ProjectLocationMatch": "Ruby", "number": 1, "lat": 64.7412, "lon": -155.467 }, "geometry": { "type": "Point", "coordinates": [ -69838.34005996772612, 1642965.630875561852008 ] } },
{ "type": "Feature", "properties": { "Program": "Small Grants", "ProjectLocationMatch": "Scammon Bay", "number": 1, "lat": 61.8412, "lon": -165.5819 }, "geometry": { "type": "Point", "coordinates": [ -604839.487323739682324, 1371091.014577412977815 ] } },
{ "type": "Feature", "properties": { "Program": "Small Grants", "ProjectLocationMatch": "Seldovia", "number": 1, "lat": 59.4387, "lon": -151.715 }, "geometry": { "type": "Point", "coordinates": [ 129155.553090964443982, 1051746.231221720576286 ] } },
{ "type": "Feature", "properties": { "Program": "Small Grants", "ProjectLocationMatch": "Seward", "number": 2, "lat": 60.13, "lon": -149.4433 }, "geometry": { "type": "Point", "coordinates": [ 252108.015963910904247, 1135482.402318878797814 ] } },
{ "type": "Feature", "properties": { "Program": "Small Grants", "ProjectLocationMatch": "Sitka", "number": 4, "lat": 57.0583, "lon": -135.3448 }, "geometry": { "type": "Point", "coordinates": [ 1114574.190823749639094, 941150.634698149980977 ] } },
{ "type": "Feature", "properties": { "Program": "Small Grants", "ProjectLocationMatch": "Soldotna", "number": 3, "lat": 60.4918, "lon": -151.0691 }, "geometry": { "type": "Point", "coordinates": [ 160446.968046060443157, 1170835.539625447941944 ] } },
{ "type": "Feature", "properties": { "Program": "Small Grants", "ProjectLocationMatch": "Solomon", "number": 1, "lat": 64.5606, "lon": -164.4416 }, "geometry": { "type": "Point", "coordinates": [ -498234.549490067176521, 1661296.42498742020689 ] } },
{ "type": "Feature", "properties": { "Program": "Small Grants", "ProjectLocationMatch": "Sutton", "number": 1, "lat": 61.7159, "lon": -148.8784 }, "geometry": { "type": "Point", "coordinates": [ 269638.202060240088031, 1314605.572648649569601 ] } },
{ "type": "Feature", "properties": { "Program": "Small Grants", "ProjectLocationMatch": "Talkeetna", "number": 2, "lat": 62.3176, "lon": -150.1081 }, "geometry": { "type": "Point", "coordinates": [ 201042.963601647847099, 1377379.261515045072883 ] } },
{ "type": "Feature", "properties": { "Program": "Small Grants", "ProjectLocationMatch": "Tenakee Springs", "number": 1, "lat": 57.7808, "lon": -135.2228 }, "geometry": { "type": "Point", "coordinates": [ 1099162.359654828207567, 1020671.975728099932894 ] } },
{ "type": "Feature", "properties": { "Program": "Small Grants", "ProjectLocationMatch": "Thorne Bay", "number": 1, "lat": 55.6898, "lon": -132.5245 }, "geometry": { "type": "Point", "coordinates": [ 1326065.361495896242559, 847237.462922293692827 ] } },
{ "type": "Feature", "properties": { "Program": "Small Grants", "ProjectLocationMatch": "Trapper Creek", "number": 1, "lat": 62.3163, "lon": -150.2339 }, "geometry": { "type": "Point", "coordinates": [ 194559.864952741831075, 1376859.464672509115189 ] } },
{ "type": "Feature", "properties": { "Program": "Small Grants", "ProjectLocationMatch": "UtqiaÄ¡vik", "number": 2, "lat": 71.2891, "lon": -156.7685 }, "geometry": { "type": "Point", "coordinates": [ -101617.456462098285556, 2367833.86575729586184 ] } },
{ "type": "Feature", "properties": { "Program": "Small Grants", "ProjectLocationMatch": "Wasilla", "number": 4, "lat": 61.5845, "lon": -149.4339 }, "geometry": { "type": "Point", "coordinates": [ 241451.139631823956734, 1297811.691704409662634 ] } },
{ "type": "Feature", "properties": { "Program": "Small Grants", "ProjectLocationMatch": "Wrangell", "number": 1, "lat": 56.4717, "lon": -132.3804 }, "geometry": { "type": "Point", "coordinates": [ 1306767.88194740912877, 932718.517880453029647 ] } }
]
}
